{
    "Ricochets_Riot": {
        "title": "Ricochet's Riot",
        "distances": [
            "50k",
            "25k",
            "25k Ruck",
            "10k",
            "5k",
            "Beer Mile"
        ],
        "location": "Killeen, TX",
        "latitude": 31.1171441,
        "longitude": -97.727796,
        "register": "https://ultrasignup.com/register.aspx?dtid=55014",
        "date": "June 1, 2024 07:00:00",
        "website": "https://www.facebook.com/profile.php?id=100088481274896"
    },
    "The_Lewiston_Ultra_Race": {
        "title": "The Lewiston Ultra Race",
        "distances": [
            "60K"
        ],
        "location": "Salmon Arm, BC",
        "latitude": 50.7005059,
        "longitude": -119.2790529,
        "register": "https://ultrasignup.com/register.aspx?dtid=55015",
        "date": "September 29, 2018 00:00:00",
        "website": "http://www.thelewistonultra.com/"
    },
    "Swiss_Valley_Trail_Races": {
        "title": "Swiss Valley Trail Races",
        "distances": [
            "10.35 Miler"
        ],
        "location": "Peosta, IA",
        "latitude": 42.4469535,
        "longitude": -90.8433797,
        "register": "https://ultrasignup.com/register.aspx?dtid=55018",
        "date": "October 7, 2017 00:00:00",
        "website": "http://www.swissvalleytrailraces.com"
    },
    "Terrapin_Mountain": {
        "title": "Terrapin Mountain",
        "distances": [
            "50k",
            "Half-marathon"
        ],
        "location": "Sedalia, VA",
        "latitude": 37.4876382,
        "longitude": -79.4403111,
        "register": "https://ultrasignup.com/register.aspx?dtid=55020",
        "date": "March 16, 2024 07:00:00",
        "website": "https://www.windingwayrunco.com/"
    },
    "Jackson_5k_Turkey_Trot_&_Kids_Fun_Run": {
        "title": "Jackson 5k Turkey Trot & Kids Fun Run",
        "distances": [
            "Jackson Turkey Trot",
            "Kids Fun Run (10 and under)"
        ],
        "location": "Jackson, NH",
        "latitude": 44.144276,
        "longitude": -71.181107,
        "register": "https://ultrasignup.com/register.aspx?dtid=55021",
        "date": "November 23, 2023 09:30:00",
        "website": "https://whitemountainski.co/pages/jackson-turkey-trot"
    },
    "Alaska:_A_Quest_for_Life": {
        "title": "Alaska: A Quest for Life",
        "distances": [
            ""
        ],
        "location": "Wasilla, AK",
        "latitude": 61.5824216,
        "longitude": -149.442563,
        "register": "https://ultrasignup.com/register.aspx?dtid=55023",
        "date": "December 14, 2023 18:30:00",
        "website": "https://aktivesoles.com/aktivities/"
    },
    "SPACEROCK_Trail_Race": {
        "title": "SPACEROCK Trail Race",
        "distances": [
            "Half Marathon",
            "15K",
            "10K",
            "5K"
        ],
        "location": "Agua Dulce, CA",
        "latitude": 34.4963817,
        "longitude": -118.3256348,
        "register": "https://ultrasignup.com/register.aspx?dtid=55024",
        "date": "October 21, 2023 00:00:00",
        "website": "https://spacerocktrailrace.com/"
    },
    "Paradise_Backyard_Ultra": {
        "title": "Paradise Backyard Ultra",
        "distances": [
            "Paradise Backyard Ultra"
        ],
        "location": "Paradise, NL",
        "latitude": 47.5255933,
        "longitude": -52.8724145,
        "register": "https://ultrasignup.com/register.aspx?dtid=55025",
        "date": "May 25, 2024 10:00:00",
        "website": "https://tinyurl.com/ParadiseBackyardUltra"
    },
    "Wasatch_100": {
        "title": "Wasatch 100",
        "distances": [
            "100 Miler"
        ],
        "location": "Kaysville, UT",
        "latitude": 41.0349847,
        "longitude": -111.9383931,
        "register": "https://ultrasignup.com/register.aspx?dtid=55027",
        "date": "September 6, 2024 05:00:00",
        "website": "http://www.wasatch100.com/"
    },
    "The_Bullshit_Backyard_Ultra": {
        "title": "The Bullshit Backyard Ultra",
        "distances": [
            "Last Person Standing"
        ],
        "location": "Lenoxville, PA",
        "latitude": 41.6623019,
        "longitude": -75.6371321,
        "register": "https://ultrasignup.com/register.aspx?dtid=55028",
        "date": "March 23, 2024 07:00:00",
        "website": "https://thebullshitbackyardultra.com/"
    },
    "Fox_Trot_5K_Utah": {
        "title": "Fox Trot 5K Utah",
        "distances": [
            "5K in Person",
            "Virtual 5K"
        ],
        "location": ", ",
        "register": "https://ultrasignup.com/register.aspx?dtid=55029",
        "date": "October 5, 2024 08:00:00",
        "website": "https://foxtrot5kutah.wixsite.com/race"
    },
    "Katcina_Mosa_100K_Mountain_Run": {
        "title": "Kat'cina Mosa 100K Mountain Run",
        "distances": [
            "100 K"
        ],
        "location": "Springville, UT",
        "latitude": 40.1652447,
        "longitude": -111.6114726,
        "register": "https://ultrasignup.com/register.aspx?dtid=55031",
        "date": "August 3, 2024 03:00:00",
        "website": "http://www.squawpeak50.com/"
    },
    "Arches_Marathon": {
        "title": "Arches Marathon",
        "distances": [
            "50K",
            "Marathon",
            "1/2 Marathon",
            "15K"
        ],
        "location": "Moab, UT",
        "latitude": 38.5738096,
        "longitude": -109.546214,
        "register": "https://ultrasignup.com/register.aspx?dtid=55032",
        "date": "October 5, 2024 07:00:00",
        "website": "https://www.madmooseevents.com/archeshalfmarathon"
    },
    "Texas_Ultra_Series": {
        "title": "Texas Ultra Series",
        "distances": [
            ""
        ],
        "location": "Multiple Cities, TX",
        "register": "https://ultrasignup.com/register.aspx?dtid=55033",
        "date": "February 17, 2024 07:00:00",
        "website": "https://www.texasoutlawrunning.com/texasultraseries"
    },
    "Ozarks_Mountain_Challenge-_Hiking_(Ascent_only)": {
        "title": "Ozark's Mountain Challenge- Hiking (Ascent only)",
        "distances": [
            "17 Miler"
        ],
        "location": "Patterson, MO",
        "latitude": 37.1883843,
        "longitude": -90.5506722,
        "register": "https://ultrasignup.com/register.aspx?dtid=55034",
        "date": "May 4, 2024 07:00:00",
        "website": "https://www.facebook.com/events/457424323640218/?active_tab=discussion"
    },
    "Sonoma_Coast_Trail_Runs": {
        "title": "Sonoma Coast Trail Runs",
        "distances": [
            "50K",
            "Trail Marathon",
            "30K"
        ],
        "location": "Duncans Mills, CA",
        "latitude": 38.4530799,
        "longitude": -123.053713,
        "register": "https://ultrasignup.com/register.aspx?dtid=54999",
        "date": "June 8, 2024 08:00:00",
        "website": "https://www.skybreakerracing.com/sonoma-coast-trail-runs"
    },
    "North_Bend_Trail_Fest": {
        "title": "North Bend Trail Fest",
        "distances": [
            "30k Elite",
            "30k Sport",
            "30k Masters 45+",
            "Little Si 10k"
        ],
        "location": "North Bend, WA",
        "latitude": 47.4957757,
        "longitude": -121.784889,
        "register": "https://ultrasignup.com/register.aspx?dtid=54873",
        "date": "October 12, 2024 08:00:00",
        "website": "https://northbendtrailfest.com/mountain-running-events/"
    },
    "24_Hour_-_Adventure_Trail": {
        "title": "24 Hour - Adventure Trail",
        "distances": [
            "24hrs",
            "4 Person Relay",
            "8 HR Night"
        ],
        "location": "Triangle, VA",
        "latitude": 38.5451489,
        "longitude": -77.3327425,
        "register": "https://ultrasignup.com/register.aspx?dtid=55035",
        "date": "April 20, 2024 07:00:00",
        "website": "https://athletic-equation.com/endurance-events/the-ultrail-series/24-hr/"
    },
    "Chopawamsic_50K_and_100K": {
        "title": "Chopawamsic 50K and 100K",
        "distances": [
            "100K",
            "50K",
            "CHOPAWAMSIC HALF MARATHON"
        ],
        "location": "Triangle, VA",
        "latitude": 38.5451489,
        "longitude": -77.3327425,
        "register": "https://ultrasignup.com/register.aspx?dtid=55036",
        "date": "April 21, 2024 07:00:00",
        "website": "https://athletic-equation.com/endurance-events/the-ultrail-series/chopawamsic-100k-challenge/"
    },
    "Trail_Trashed_Ultra": {
        "title": "Trail Trashed Ultra",
        "distances": [
            ""
        ],
        "location": "Henderson, NV",
        "latitude": 36.0319843,
        "longitude": -114.9822486,
        "register": "https://ultrasignup.com/register.aspx?dtid=51963",
        "date": "March 23, 2024 07:00:00",
        "website": "http://www.tripledareruns.com/events/?cid1=7&date=1457769600&self=1"
    },
    "Andys_Backyard_Ultra": {
        "title": "Andy's Backyard Ultra",
        "distances": [
            "Last Runner Standing"
        ],
        "location": "Earlysville, VA",
        "latitude": 38.1576342,
        "longitude": -78.4827896,
        "register": "https://ultrasignup.com/register.aspx?dtid=55038",
        "date": "October 14, 2023 00:00:00",
        "website": "https://ultrasignup.com/events/search.aspx"
    },
    "Boulder_Beast": {
        "title": "Boulder Beast",
        "distances": [
            "24 Miler",
            "25K"
        ],
        "location": "Lock Haven, PA",
        "latitude": 41.1369077,
        "longitude": -77.4471641,
        "register": "https://ultrasignup.com/register.aspx?dtid=55039",
        "date": "September 21, 2024 07:00:00",
        "website": "https://www.patraildogs.com/"
    },
    "Little_Pine_5_Miler": {
        "title": "Little Pine 5 Miler",
        "distances": [
            "5 Miler",
            "5 Miler--14 and Under"
        ],
        "location": "Waterville, PA",
        "latitude": 41.3097663,
        "longitude": -77.3620998,
        "register": "https://ultrasignup.com/register.aspx?dtid=55040",
        "date": "October 19, 2024 10:00:00",
        "website": "https://www.patraildogs.com/"
    },
    "The_Lone_Wolf_Backyard_Ultra": {
        "title": "The Lone Wolf Backyard Ultra",
        "distances": [
            "Lone Wolf",
            "Coyotes"
        ],
        "location": "Fernie, BC",
        "latitude": 49.5041747,
        "longitude": -115.062867,
        "register": "https://ultrasignup.com/register.aspx?dtid=55041",
        "date": "September 21, 2024 09:00:00",
        "website": "http://www.stagleaprunning.com/stag-leap-services/races/lone-wolf/"
    },
    "Shake_Your_Trail_Feather_Trail_Run": {
        "title": "Shake Your Trail Feather Trail Run",
        "distances": [
            "50K",
            "1/2 Marathon",
            "10K",
            "5K"
        ],
        "location": "Charleston, IL",
        "latitude": 39.4961458,
        "longitude": -88.1761521,
        "register": "https://ultrasignup.com/register.aspx?dtid=55042",
        "date": "October 19, 2024 08:00:00",
        "website": "http://www.shakeyourtrailfeather.com"
    },
    "Elsa_Chicken_Plucker_Backyard_Ultra": {
        "title": "Elsa Chicken Plucker Backyard Ultra",
        "distances": [
            "Backyard Ultra"
        ],
        "location": "Charleston, IL",
        "latitude": 39.4961458,
        "longitude": -88.1761521,
        "register": "https://ultrasignup.com/register.aspx?dtid=55043",
        "date": "May 25, 2024 09:00:00",
        "website": "http://www.elsachickenplucker.com"
    },
    "Cottontail_6_&_12_Hour": {
        "title": "Cottontail 6 & 12 Hour",
        "distances": [
            "12hrs",
            "6hrs"
        ],
        "location": "Seattle, WA",
        "latitude": 47.6038321,
        "longitude": -122.330062,
        "register": "https://ultrasignup.com/register.aspx?dtid=55044",
        "date": "April 13, 2024 07:00:00",
        "website": "http://www.endlesstrails.us/cottontail-6-12-hour.html"
    },
    "Cottontail_6_&_12_Hour_(Virtual)": {
        "title": "Cottontail 6 & 12 Hour (Virtual)",
        "distances": [
            "12 Hour - Virtual",
            "6 Hour - Virtual"
        ],
        "location": ", ",
        "register": "https://ultrasignup.com/register.aspx?dtid=55045",
        "date": "April 1, 2024 07:00:00",
        "website": "http://www.endlesstrails.us/cottontail-6-12-hour.html"
    },
    "Sharlie_Shuffle": {
        "title": "Sharlie Shuffle",
        "distances": [
            "12HR",
            "6HR"
        ],
        "location": "McCall, ID",
        "latitude": 44.9110458,
        "longitude": -116.098281,
        "register": "https://ultrasignup.com/register.aspx?dtid=55046",
        "date": "June 1, 2024 07:00:00",
        "website": "http://www.endlesstrails.us/sharlie-shuffle.html"
    },
    "Sharlie_Shuffle_(Virtual)": {
        "title": "Sharlie Shuffle (Virtual)",
        "distances": [
            "12 Hour - Virtual",
            "6 Hour - Virtual"
        ],
        "location": ", ",
        "register": "https://ultrasignup.com/register.aspx?dtid=55047",
        "date": "June 30, 2024 09:00:00",
        "website": "http://www.endlesstrails.us/sharlie-shuffle.html"
    },
    "Summer_Shuffle_12_Hour_(Virtual)": {
        "title": "Summer Shuffle 12 Hour (Virtual)",
        "distances": [
            "12 Hour - Virtual",
            "6 Hour - Virtual"
        ],
        "location": ", ",
        "register": "https://ultrasignup.com/register.aspx?dtid=55048",
        "date": "July 1, 2024 07:00:00",
        "website": "http://www.endlesstrails.us/races.html"
    },
    "Sasquatch_Shuffle": {
        "title": "Sasquatch Shuffle",
        "distances": [
            "Triple Threat",
            "50K",
            "30K",
            "20K"
        ],
        "location": "McCall, ID",
        "latitude": 44.9110458,
        "longitude": -116.098281,
        "register": "https://ultrasignup.com/register.aspx?dtid=55049",
        "date": "October 12, 2024 08:00:00",
        "website": "http://www.endlesstrails.us/sasquatch-shuffle.html"
    },
    "Apex_Aries": {
        "title": "Apex Aries",
        "distances": [
            ""
        ],
        "location": ", ",
        "register": "https://ultrasignup.com/register.aspx?dtid=55050",
        "date": "April 19, 2024 07:00:00",
        "website": "http://www.endlesstrails.us/apex-aries.html"
    },
    "Carkeek_12_Hour": {
        "title": "Carkeek 12 Hour",
        "distances": [
            "12HR",
            "6HR"
        ],
        "location": "Seattle, WA",
        "latitude": 47.6038321,
        "longitude": -122.330062,
        "register": "https://ultrasignup.com/register.aspx?dtid=55051",
        "date": "October 19, 2024 07:00:00",
        "website": "http://www.endlesstrails.us/carkeek-12-hour.html"
    },
    "Sante_Fe_Jornado": {
        "title": "Sante Fe Jornado",
        "distances": [
            "50 Miler",
            "50k",
            "12 Miler"
        ],
        "location": "Durham, KS",
        "latitude": 38.4851114,
        "longitude": -97.2282106,
        "register": "https://ultrasignup.com/register.aspx?dtid=55052",
        "date": "January 27, 2024 09:00:00",
        "website": "https://www.santefejornado.com/"
    },
    "McNotAgain_Trail_Runs": {
        "title": "McNotAgain Trail Runs",
        "distances": [
            "30 Miler",
            "10 Miler",
            "5 Miler"
        ],
        "location": "Pekin, IL",
        "latitude": 40.5687911,
        "longitude": -89.6501621,
        "register": "https://ultrasignup.com/register.aspx?dtid=55053",
        "date": "October 28, 2023 00:00:00",
        "website": "http://www.mayhemracemanagement.com/mcnotagain/"
    },
    "Elk_Valley_Ultra": {
        "title": "Elk Valley Ultra",
        "distances": [
            "50K",
            "15K"
        ],
        "location": "Fernie, BC",
        "latitude": 49.5041747,
        "longitude": -115.062867,
        "register": "https://ultrasignup.com/register.aspx?dtid=55054",
        "date": "July 27, 2024 08:00:00",
        "website": "http://www.stagleaprunning.com/stag-leap-services/races/elk-valley-ultra/"
    },
    "The_New_Orleans_Ultramarathon_and_Half": {
        "title": "The New Orleans Ultramarathon and Half",
        "distances": [
            "50 Miler",
            "50K",
            "Half Marathon"
        ],
        "location": "New Orleans, LA",
        "latitude": 29.9759983,
        "longitude": -90.0782127,
        "register": "https://ultrasignup.com/register.aspx?dtid=55055",
        "date": "October 19, 2024 06:00:00",
        "website": "https://www.lazyhoundracing.com/the-new-orleans-ultramarathon"
    },
    "Little_Backyard_Adventure": {
        "title": "Little Backyard Adventure",
        "distances": [
            "12 Hours",
            "6 Hours"
        ],
        "location": "Olympia, WA",
        "latitude": 47.0451022,
        "longitude": -122.8950075,
        "register": "https://ultrasignup.com/register.aspx?dtid=55056",
        "date": "March 9, 2024 07:00:00",
        "website": "http://rockcandyrunning.com/lba"
    },
    "Telluride_Mountain_Run": {
        "title": "Telluride Mountain Run",
        "distances": [
            "40 Miler",
            "24 Miler",
            "13 Miler"
        ],
        "location": "Telluride, CO",
        "latitude": 37.9374939,
        "longitude": -107.812285,
        "register": "https://ultrasignup.com/register.aspx?dtid=55057",
        "date": "August 24, 2024 05:00:00",
        "website": "http://www.runtelluride.com/"
    },
    "Frigus_Snowshoe_Festival": {
        "title": "Frigus Snowshoe Festival",
        "distances": [
            "30HR Ultra",
            "Marathon",
            "15K",
            "5K",
            "Kid's 1 Miler"
        ],
        "location": "Gansevoort, NY",
        "latitude": 43.196027,
        "longitude": -73.651484,
        "register": "https://ultrasignup.com/register.aspx?dtid=55058",
        "date": "February 2, 2024 08:00:00",
        "website": "https://www.endurancesociety.org/"
    },
    "Streakers_Marathon": {
        "title": "Streakers Marathon",
        "distances": [
            "Marathon"
        ],
        "location": "Provo, UT",
        "latitude": 40.2337289,
        "longitude": -111.6587085,
        "register": "https://ultrasignup.com/register.aspx?dtid=55059",
        "date": "April 13, 2024 07:00:00",
        "website": "http://squawpeak50.com/streakers-marathon/"
    },
    "Cappys_Backyard_Ultra": {
        "title": "Cappy's Backyard Ultra",
        "distances": [
            "58.3 Miler",
            "LAST MAN STANDING"
        ],
        "location": "Panaca, NV",
        "latitude": 37.79052,
        "longitude": -114.389433,
        "register": "https://ultrasignup.com/register.aspx?dtid=55060",
        "date": "April 6, 2024 08:00:00",
        "website": "https://rockyroadadventuresnv.com/cappys-backyard-ultra/"
    },
    "Run_Under_The_Stars_TM_-_Oak_Ridge": {
        "title": "Run Under The Stars TM - Oak Ridge",
        "distances": [
            "6hrs",
            "3hrs"
        ],
        "location": "Oak Ridge, TN",
        "latitude": 36.0103562,
        "longitude": -84.2696449,
        "register": "https://ultrasignup.com/register.aspx?dtid=44892",
        "date": "May 15, 2021 00:00:00",
        "website": "http://www.durbinracemanagement.com"
    },
    "Surf_the_Murph": {
        "title": "Surf the Murph",
        "distances": [
            "50 Miler",
            "50K",
            "Marathon",
            "25K"
        ],
        "location": "Savage, MN",
        "latitude": 44.7779041,
        "longitude": -93.3356204,
        "register": "https://ultrasignup.com/register.aspx?dtid=55061",
        "date": "October 21, 2023 00:00:00",
        "website": "http://surfthemurph.org"
    },
    "Hood_Hundred": {
        "title": "Hood Hundred",
        "distances": [
            "100 Miler"
        ],
        "location": "Mt. Hood, OR",
        "latitude": 45.3735129,
        "longitude": -121.695878,
        "register": "https://ultrasignup.com/register.aspx?dtid=55063",
        "date": "August 3, 2024 06:00:00",
        "website": "https://www.daybreakracing.com/hood-hundred"
    },
    "Ultra_Donut_Dash": {
        "title": "Ultra Donut Dash",
        "distances": [
            "Ultra Donut Dash 5k"
        ],
        "location": "Birmingham, AL",
        "latitude": 33.5206824,
        "longitude": -86.8024326,
        "register": "https://ultrasignup.com/register.aspx?dtid=55064",
        "date": "February 10, 2024 09:00:00",
        "website": "https://www.facebook.com/zombietrailraces"
    },
    "Noche_Trail_Runs": {
        "title": "Noche Trail Runs",
        "distances": [
            "40 Miler",
            "27 Miler",
            "Half Marathon"
        ],
        "location": "Junction, TX",
        "latitude": 30.4893555,
        "longitude": -99.7720109,
        "register": "https://ultrasignup.com/register.aspx?dtid=55065",
        "date": "July 13, 2024 19:00:00",
        "website": "https://www.texasoutlawrunning.com/noche"
    },
    "Dick_Collins_Firetrails": {
        "title": "Dick Collins Firetrails",
        "distances": [
            ""
        ],
        "location": "Castro Valley, CA",
        "latitude": 37.71360595,
        "longitude": -122.07156581367964,
        "register": "https://ultrasignup.com/register.aspx?dtid=55068",
        "date": "September 29, 2024 06:00:00",
        "website": "http://scenaperformance.com/events/dick-collins-firetrails/"
    },
    "3_of_7_Project_Trail_Race": {
        "title": "3 of 7 Project Trail Race",
        "distances": [
            "8hrs",
            "6hrs",
            "4hrs"
        ],
        "location": "Summerville, GA",
        "latitude": 34.480642,
        "longitude": -85.3477343,
        "register": "https://ultrasignup.com/register.aspx?dtid=55069",
        "date": "February 10, 2024 08:00:00",
        "website": "https://www.3of7project.com/"
    },
    "Georgia_Ultrarunning_and_Trailrunning_Society_Membership": {
        "title": "Georgia Ultrarunning and Trailrunning Society Membership",
        "distances": [
            ""
        ],
        "location": "Marietta, GA",
        "latitude": 33.9528472,
        "longitude": -84.5496148,
        "register": "https://ultrasignup.com/register.aspx?dtid=55070",
        "date": "January 1, 2024 08:00:00",
        "website": "http://www.getguts.com/"
    },
    "Fancy_Nonsense_25k/50k": {
        "title": "Fancy Nonsense 25k/50k",
        "distances": [
            "50K",
            "25K",
            "5 Miler"
        ],
        "location": "Willow Springs, IL",
        "latitude": 41.7402308,
        "longitude": -87.8586963,
        "register": "https://ultrasignup.com/register.aspx?dtid=55071",
        "date": "October 26, 2024 08:00:00",
        "website": "http://www.cussingrunner.com"
    },
    "St._Pats_24_Hour_Race": {
        "title": "St. Pats 24 Hour Race",
        "distances": [
            "St. Pats 24 Hour",
            "St. Pats 12 Hour"
        ],
        "location": "South Bend, IN",
        "latitude": 41.6833813,
        "longitude": -86.2500066,
        "register": "https://ultrasignup.com/register.aspx?dtid=55073",
        "date": "October 19, 2024 08:00:00",
        "website": "http://www.facebook.com/stpats24hour/?ref=page_internal"
    },
    "ECT_50_Ultra_Marathon": {
        "title": "ECT 50 Ultra Marathon",
        "distances": [
            "50K"
        ],
        "location": "Pouch Cove, NL",
        "latitude": 47.7638118,
        "longitude": -52.7652466,
        "register": "https://ultrasignup.com/register.aspx?dtid=55074",
        "date": "October 26, 2024 07:40:00",
        "website": "http://www.eastcoasttrailultra.ca"
    },
    "Aspire_Adventure_Running:_Custom": {
        "title": "Aspire Adventure Running: Custom",
        "distances": [
            "Custom Wonderland"
        ],
        "location": "Bellingham, WA",
        "latitude": 48.7544012,
        "longitude": -122.478836,
        "register": "https://ultrasignup.com/register.aspx?dtid=55075",
        "date": "January 1, 2024 17:00:00",
        "website": "http://www.aspireadventurerunning.com"
    },
    "Mt._Umunhum_Trail_Conquest-Fall": {
        "title": "Mt. Umunhum Trail Conquest-Fall",
        "distances": [
            "50K",
            "Trail Marathon",
            "30K",
            "Half Marathon",
            "7 Miler",
            "5K"
        ],
        "location": "San Jose, CA",
        "latitude": 37.3361663,
        "longitude": -121.890591,
        "register": "https://ultrasignup.com/register.aspx?dtid=55076",
        "date": "October 12, 2024 08:00:00",
        "website": "https://tctruns.com/mt-umunhum-trail-conquest-fall/"
    },
    "SGFMC_Turkey_Trot": {
        "title": "SGFMC Turkey Trot",
        "distances": [
            "5k - Kids: 10 & Under",
            "5k - Adult: 11 & Up"
        ],
        "location": "Oak Park, IL",
        "latitude": 41.8878145,
        "longitude": -87.7887615,
        "register": "https://ultrasignup.com/register.aspx?dtid=54967",
        "date": "November 23, 2023 09:30:00",
        "website": "https://www.facebook.com/SGFMCTurkeyTrot"
    },
    "Kilkenny_Ridge_Race": {
        "title": "Kilkenny Ridge Race",
        "distances": [
            "50 Miler",
            "25 Miler",
            "25K"
        ],
        "location": "Stark, NH",
        "latitude": 44.6006705,
        "longitude": -71.4076237,
        "register": "https://ultrasignup.com/register.aspx?dtid=55077",
        "date": "September 14, 2024 05:00:00",
        "website": "https://www.aravaiparunning.com/white-mountain-endurance/"
    },
    "Run_the_Rut": {
        "title": "Run the Rut",
        "distances": [
            "Trifecta",
            "50K",
            "28K",
            "Lone Peak VK"
        ],
        "location": "Big Sky, MT",
        "latitude": 45.2589644,
        "longitude": -111.308725,
        "register": "https://ultrasignup.com/register.aspx?dtid=45741",
        "date": "September 5, 2021 00:00:00",
        "website": "http://runtherut.com/"
    },
    "Childish_Nonsense": {
        "title": "Childish Nonsense",
        "distances": [
            "50 Miler",
            "50K",
            "25K",
            "10K"
        ],
        "location": "Palatine, IL",
        "latitude": 42.1105779,
        "longitude": -88.0336888,
        "register": "https://ultrasignup.com/register.aspx?dtid=55072",
        "date": "April 27, 2024 07:00:00",
        "website": "https://cussingrunner.com/"
    },
    "Last_Paddler_Standing": {
        "title": "Last Paddler Standing",
        "distances": [
            "Last Paddler Standing"
        ],
        "location": "Sarasota, FL",
        "latitude": 27.3365805,
        "longitude": -82.5308545,
        "register": "https://ultrasignup.com/register.aspx?dtid=55078",
        "date": "December 2, 2023 09:00:00",
        "website": "https://lastpaddlerstanding.com/"
    },
    "Ram_Party": {
        "title": "Ram Party",
        "distances": [
            "Sat 55 Mile",
            "Sat 60K",
            "Sat 50K",
            "Sat 24K",
            "Sat 15K",
            "Sun 33K",
            "Sun 24K",
            "Sun 16K"
        ],
        "location": "Colorado Springs, CO",
        "latitude": 38.8339578,
        "longitude": -104.825348,
        "register": "https://ultrasignup.com/register.aspx?dtid=55079",
        "date": "May 18, 2024 06:00:00",
        "website": "https://www.aravaiparunning.com/ram-party/"
    },
    "Lastest_Not_Fastest": {
        "title": "Lastest Not Fastest",
        "distances": [
            "Last Person Standing"
        ],
        "location": "North Bonneville, WA",
        "latitude": 45.6373393,
        "longitude": -121.971193,
        "register": "https://ultrasignup.com/register.aspx?dtid=55081",
        "date": "October 5, 2024 09:00:00",
        "website": "https://gobeyondracing.com/races/lastest-not-fastest"
    },
    "Fire_Fest_Ultra": {
        "title": "Fire Fest Ultra",
        "distances": [
            ""
        ],
        "location": "Logandale, NV",
        "latitude": 36.5966367,
        "longitude": -114.484155,
        "register": "https://ultrasignup.com/register.aspx?dtid=50614",
        "date": "November 19, 2023 09:00:00",
        "website": "http://www.tripledareruns.com/events/valley-of-fire"
    },
    "Arc_of_Attrition": {
        "title": "Arc of Attrition",
        "distances": [
            "100 Miler",
            "50 Miler"
        ],
        "location": "Porthtowan, Great Britain",
        "register": "https://ultrasignup.com/register.aspx?dtid=55085",
        "date": "January 27, 2023 00:00:00",
        "website": "http://mudcrew.co.uk/event/the-arc-of-attrition/"
    },
    "Almira_50": {
        "title": "Almira 50",
        "distances": [
            "50 Miler",
            "Marathon"
        ],
        "location": "Wynne, AR",
        "latitude": 35.224533,
        "longitude": -90.7867798,
        "register": "https://ultrasignup.com/register.aspx?dtid=55086",
        "date": "April 27, 2024 06:00:00",
        "website": "https://www.facebook.com/traildawgrunningco/"
    },
    "The_Naturalist": {
        "title": "The Naturalist",
        "distances": [
            "50K",
            "25K"
        ],
        "location": "Franklin, NC",
        "latitude": 36.1028596,
        "longitude": -78.2787229,
        "register": "https://ultrasignup.com/register.aspx?dtid=55087",
        "date": "October 5, 2024 08:00:00",
        "website": "http://www.outdoor76.com"
    },
    "Ramble_In_The_Brambles": {
        "title": "Ramble In The Brambles",
        "distances": [
            "29 Miler",
            "19 Miler",
            "9 Miler",
            "9 Miler RUCK",
            "5K (3.2 Miles)"
        ],
        "location": "Muenster, TX",
        "latitude": 33.6515343,
        "longitude": -97.3762777,
        "register": "https://ultrasignup.com/register.aspx?dtid=52324",
        "date": "March 23, 2024 07:45:00",
        "website": "https://www.texasoutlawrunning.com/ramble"
    },
    "Pony_Express_Trail_Run": {
        "title": "Pony Express Trail Run",
        "distances": [
            "100 Miler",
            "50 Miler"
        ],
        "location": "West of Faust, UT",
        "register": "https://ultrasignup.com/register.aspx?dtid=55088",
        "date": "October 18, 2024 05:00:00",
        "website": "http://www.PonyExpress100.org/"
    },
    "Rattlerock_Ultra": {
        "title": "Rattlerock Ultra",
        "distances": [
            "50k",
            "25k"
        ],
        "location": "Morgantown, WV",
        "latitude": 39.6296809,
        "longitude": -79.9559437,
        "register": "https://ultrasignup.com/register.aspx?dtid=55089",
        "date": "July 27, 2024 06:30:00",
        "website": "https://rattlerockultra.blogspot.com/"
    },
    "Bimblers_Bluff": {
        "title": "Bimblers Bluff",
        "distances": [
            "50K"
        ],
        "location": "Guilford, CT",
        "latitude": 41.2827593,
        "longitude": -72.6816365,
        "register": "https://ultrasignup.com/register.aspx?dtid=55090",
        "date": "October 22, 2023 00:00:00",
        "website": "http://mrbimble.com/WordPress/bluff/"
    },
    "Indian_Creek_Fifties": {
        "title": "Indian Creek Fifties",
        "distances": [
            "55K",
            "50 Miler"
        ],
        "location": "Sedalia, CO",
        "latitude": 39.44365835,
        "longitude": -104.97655367695114,
        "register": "https://ultrasignup.com/register.aspx?dtid=55008",
        "date": "October 14, 2023 00:00:00",
        "website": "Http://UltraSignup.com"
    },
    "The_Kerry_Way_Ultra": {
        "title": "The Kerry Way Ultra",
        "distances": [
            "193K",
            "101K",
            "58K"
        ],
        "location": "Killarney, Ireland",
        "latitude": 52.0595746,
        "longitude": -9.505322,
        "register": "https://ultrasignup.com/register.aspx?dtid=55091",
        "date": "September 1, 2023 00:00:00",
        "website": "http://www.kerrywayultra.com"
    },
    "Frosty_Fireman_5k": {
        "title": "Frosty Fireman 5k",
        "distances": [
            "5k",
            "1 Mile Fun Run"
        ],
        "location": "Franklin, TN",
        "latitude": 35.925206,
        "longitude": -86.8689419,
        "register": "https://ultrasignup.com/register.aspx?dtid=55093",
        "date": "February 17, 2024 08:00:00",
        "website": "http://www.bmfjevents.com"
    },
    "Lone_Star_Night_Run": {
        "title": "Lone Star Night Run",
        "distances": [
            "Half Marathon",
            "10K",
            "5K"
        ],
        "location": "Weatherford, TX",
        "latitude": 32.7589648,
        "longitude": -97.7970748,
        "register": "https://ultrasignup.com/register.aspx?dtid=55094",
        "date": "September 14, 2024 20:30:00",
        "website": "https://www.texasoutlawrunning.com/lonestar"
    },
    "Little_Su_50K": {
        "title": "Little Su 50K",
        "distances": [
            "50K Run",
            "50K Bike",
            "50K Ski"
        ],
        "location": "Big Lake, AK",
        "latitude": 61.5417461,
        "longitude": -149.830355,
        "register": "https://ultrasignup.com/register.aspx?dtid=55095",
        "date": "February 17, 2024 11:00:00",
        "website": "http://www.susitna100.com/"
    },
    "Death_by_5k_Little_Rock": {
        "title": "Death by 5k Little Rock",
        "distances": [
            "24 Hour Challenge"
        ],
        "location": "North Little Rock, AR",
        "latitude": 34.769536,
        "longitude": -92.2670941,
        "register": "https://ultrasignup.com/register.aspx?dtid=55096",
        "date": "March 16, 2024 08:00:00",
        "website": "http://www.deathby5k.com"
    },
    "Trail_of_Terror": {
        "title": "Trail of Terror",
        "distances": [
            ""
        ],
        "location": "Las Vegas, NV",
        "latitude": 36.1672559,
        "longitude": -115.148516,
        "register": "https://ultrasignup.com/register.aspx?dtid=55097",
        "date": "October 26, 2024 06:00:00",
        "website": "http://www.tripledareruns.com"
    },
    "MFn_Trail_Club": {
        "title": "MF'n Trail Club",
        "distances": [
            "Membership"
        ],
        "location": "Franklin, TN",
        "latitude": 35.925206,
        "longitude": -86.8689419,
        "register": "https://ultrasignup.com/register.aspx?dtid=55099",
        "date": "October 31, 2024 12:00:00",
        "website": "http://www.bmfjevents.com"
    },
    "Deja_Vu": {
        "title": "Deja Vu",
        "distances": [
            ""
        ],
        "location": "Henderson, NV",
        "latitude": 36.0319843,
        "longitude": -114.9822486,
        "register": "https://ultrasignup.com/register.aspx?dtid=53443",
        "date": "April 13, 2024 07:30:00",
        "website": "http://www.tripledareruns.com/events/"
    },
    "California_Gold_Rush_Trail_Run_-_Fall": {
        "title": "California Gold Rush Trail Run - Fall",
        "distances": [
            "Half Marathon",
            "15K",
            "10K",
            "5K",
            "Mile",
            "Kids Run"
        ],
        "location": "Coloma, CA",
        "latitude": 38.7999014,
        "longitude": -120.890216,
        "register": "https://ultrasignup.com/register.aspx?dtid=55100",
        "date": "October 19, 2024 08:30:00",
        "website": "https://tctruns.com/californiagoldrushtrailrun-fall/"
    },
    "Rancho_Hills_Trail_Run_-_Fall": {
        "title": "Rancho Hills Trail Run - Fall",
        "distances": [
            "50K",
            "Marathon",
            "30K",
            "Half Marathon",
            "10 Miler",
            "8 Mile",
            "10K",
            "5K"
        ],
        "location": "Morgan Hill, CA",
        "latitude": 37.130408,
        "longitude": -121.6544974,
        "register": "https://ultrasignup.com/register.aspx?dtid=55101",
        "date": "October 5, 2024 08:00:00",
        "website": "https://tctruns.com/rancho-hills-trail-run-fall/"
    },
    "Trail_Run_at_Sly_Park_-_Fall": {
        "title": "Trail Run at Sly Park - Fall",
        "distances": [
            "50K",
            "Trail Marathon",
            "17 Miler",
            "Half Marathon",
            "8 Miler",
            "10K",
            "5K"
        ],
        "location": "Pollock Pines, CA",
        "latitude": 38.749703499999995,
        "longitude": -120.57766098808176,
        "register": "https://ultrasignup.com/register.aspx?dtid=55102",
        "date": "October 26, 2024 08:00:00",
        "website": "https://tctruns.com/trailrunatslypark_fall/"
    },
    "TPK_Chasing_Rabbits": {
        "title": "TPK Chasing Rabbits",
        "distances": [
            "100K",
            "12 Hours",
            "12 Hours RUCKING DIVISION",
            "5 Mile"
        ],
        "location": "Stanhope, NJ",
        "latitude": 40.9028765,
        "longitude": -74.7090517,
        "register": "https://ultrasignup.com/register.aspx?dtid=55103",
        "date": "October 26, 2024 20:00:00",
        "website": "https://twopunkkids.com/chasing-rabbits"
    },
    "Equalizer": {
        "title": "Equalizer",
        "distances": [
            "24hrs",
            "12hrs",
            "6hrs"
        ],
        "location": "Des Moines, IA",
        "latitude": 41.5868654,
        "longitude": -93.6249494,
        "register": "https://ultrasignup.com/register.aspx?dtid=55104",
        "date": "October 28, 2023 00:00:00",
        "website": "http://www.equalizerdsm.com/"
    },
    "Cougar_Mountain_Trail_Runs": {
        "title": "Cougar Mountain Trail Runs",
        "distances": [
            "50K",
            "14.5 Miler",
            "19.5 Miler"
        ],
        "location": "Bellevue, WA",
        "latitude": 47.6144219,
        "longitude": -122.192337,
        "register": "https://ultrasignup.com/register.aspx?dtid=53635",
        "date": "May 13, 2023 00:00:00",
        "website": "https://cougar.seattlerunningclub.org/"
    },
    "The_Summit_200": {
        "title": "The Summit 200",
        "distances": [
            "The Summit 200"
        ],
        "location": "Frisco, CO",
        "latitude": 39.5744299,
        "longitude": -106.0975196,
        "register": "https://ultrasignup.com/register.aspx?dtid=55105",
        "date": "July 22, 2024 05:00:00",
        "website": "https://ultraversesupplements.com/our-races/summit-200"
    },
    "Ultra_Race_of_Champions": {
        "title": "Ultra Race of Champions",
        "distances": [
            "50-Miler",
            "50K",
            "Half Marathon"
        ],
        "location": "Skylark, VA",
        "latitude": 36.79906649903295,
        "longitude": -76.07665253763628,
        "register": "https://ultrasignup.com/register.aspx?dtid=55106",
        "date": "April 27, 2024 05:00:00",
        "website": "http://ultraroc.com/"
    },
    "Hokey_Pokey_in_the_Goethe": {
        "title": "Hokey Pokey in the Goethe",
        "distances": [
            "50 Miler"
        ],
        "location": "Dunnellon, FL",
        "latitude": 29.0491426,
        "longitude": -82.4609331,
        "register": "https://ultrasignup.com/register.aspx?dtid=55107",
        "date": "January 27, 2024 06:00:00",
        "website": "http://ridesandruns.net/do-the-hokey-pokey/"
    },
    "Yosemite:_Tuolumne_Meadows": {
        "title": "Yosemite: Tuolumne Meadows",
        "distances": [
            "June 19 - 23",
            "June 26 - 30",
            "July 3 - 7"
        ],
        "location": "Yosemite National Park, CA",
        "latitude": 37.83930035,
        "longitude": -119.51646348068644,
        "register": "https://ultrasignup.com/register.aspx?dtid=55108",
        "date": "July 1, 2024 17:00:00",
        "website": "https://www.aspireadventurerunning.com/yosemite-tuolumne-meadows/"
    },
    "Oakadoke_Trail_Runs": {
        "title": "Oakadoke Trail Runs",
        "distances": [
            "18 Mile",
            "9 Mile",
            "4 Mile"
        ],
        "location": "Valparaiso, IN",
        "latitude": 41.4672552,
        "longitude": -87.0604487,
        "register": "https://ultrasignup.com/register.aspx?dtid=55109",
        "date": "August 3, 2024 07:00:00",
        "website": "https://www.trailblazerrunning.co/oakadoke-trail-runs"
    },
    "Marine_Corps_Marathon_-_50K": {
        "title": "Marine Corps Marathon - 50K",
        "distances": [
            "50K"
        ],
        "location": "Washington, DC",
        "latitude": 38.8950368,
        "longitude": -77.0365427,
        "register": "https://ultrasignup.com/register.aspx?dtid=55110",
        "date": "October 29, 2023 00:00:00",
        "website": "https://www.marinemarathon.com/"
    },
    "Arbor_Day_15k": {
        "title": "Arbor Day 15k",
        "distances": [
            "15k Run/Hike"
        ],
        "location": "Williamsburg, VA",
        "latitude": 37.2708788,
        "longitude": -76.7074042,
        "register": "https://ultrasignup.com/register.aspx?dtid=55111",
        "date": "April 28, 2024 09:00:00",
        "website": "https://happycatevents.com/"
    },
    "The_Bad_Thing": {
        "title": "The Bad Thing",
        "distances": [
            "50K",
            "25K"
        ],
        "location": "Goderich, ON",
        "latitude": 43.7430924,
        "longitude": -81.7110949,
        "register": "https://ultrasignup.com/register.aspx?dtid=55112",
        "date": "October 21, 2023 00:00:00",
        "website": "https://www.racethebadthing.com"
    },
    "Georgia_Sky_to_Summit": {
        "title": "Georgia Sky to Summit",
        "distances": [
            "50K",
            "25K"
        ],
        "location": "Sky Valley, GA",
        "latitude": 34.9875902,
        "longitude": -83.3332103,
        "register": "https://ultrasignup.com/register.aspx?dtid=55114",
        "date": "October 26, 2024 07:30:00",
        "website": "https://www.runbumtours.com"
    },
    "Squirrelly_Tail_Twail_Wun": {
        "title": "Squirrelly Tail Twail Wun",
        "distances": [
            "1/2 Marathon"
        ],
        "location": "Lewisberry, PA",
        "latitude": 40.1350929,
        "longitude": -76.8596945,
        "register": "https://ultrasignup.com/register.aspx?dtid=55115",
        "date": "February 18, 2024 10:00:00",
        "website": "http://squirrellytailtwailwun.webs.com/"
    },
    "Kickin_it_Route_66_Color_Run_5k": {
        "title": "Kickin' it Route 66 Color Run 5k",
        "distances": [
            "5K"
        ],
        "location": "St. Robert, MO",
        "latitude": 37.8140737,
        "longitude": -92.1375079,
        "register": "https://ultrasignup.com/register.aspx?dtid=55116",
        "date": "March 22, 2024 17:30:00",
        "website": "https://www.facebook.com/hfpcmo"
    },
    "Racing_for_Daylight": {
        "title": "Racing for Daylight",
        "distances": [
            "12hrs"
        ],
        "location": "Waynesville, MO",
        "latitude": 37.8141419,
        "longitude": -92.2266876,
        "register": "https://ultrasignup.com/register.aspx?dtid=55117",
        "date": "March 9, 2024 18:00:00",
        "website": "https://www.facebook.com/racingfordaylight"
    },
    "County_Fair_Color_Run_5k": {
        "title": "County Fair Color Run 5k",
        "distances": [
            "5K"
        ],
        "location": "St. Robert, MO",
        "latitude": 37.8140737,
        "longitude": -92.1375079,
        "register": "https://ultrasignup.com/register.aspx?dtid=55118",
        "date": "June 15, 2024 08:00:00",
        "website": "https://www.facebook.com/hfpcmo"
    },
    "Ultra_Sweaty_Santa": {
        "title": "Ultra Sweaty Santa",
        "distances": [
            "6hrs"
        ],
        "location": "Devils Elbow, MO",
        "latitude": 37.8458737,
        "longitude": -92.0637747,
        "register": "https://ultrasignup.com/register.aspx?dtid=55119",
        "date": "July 13, 2024 06:00:00",
        "website": "https://www.facebook.com/events/1220909042140053"
    },
    "Assault_on_BlackRock": {
        "title": "Assault on BlackRock",
        "distances": [
            "7 Miler"
        ],
        "location": "Sylva, NC",
        "latitude": 35.3737293,
        "longitude": -83.2259222,
        "register": "https://ultrasignup.com/register.aspx?dtid=55120",
        "date": "March 16, 2024 09:00:00",
        "website": "https://www.facebook.com/Assault-on-BlackRock-189988924357412/"
    },
    "Bad_Dawg_100/50/100k/50k": {
        "title": "Bad Dawg 100/50/100k/50k",
        "distances": [
            "Bad Dawg Hundred",
            "100K",
            "50 Miler",
            "50K",
            "12 Miler"
        ],
        "location": "Waynesville, MO",
        "latitude": 37.8141419,
        "longitude": -92.2266876,
        "register": "https://ultrasignup.com/register.aspx?dtid=55121",
        "date": "August 17, 2024 06:00:00",
        "website": "https://www.facebook.com/baddawgultra"
    },
    "Vashon_Island_Ultramarathon_&_Trail_Run": {
        "title": "Vashon Island Ultramarathon & Trail Run",
        "distances": [
            "50K",
            "20 Miler",
            "10 Miler"
        ],
        "location": "Vashon Island, WA",
        "latitude": 47.420875949999996,
        "longitude": -122.47370525466893,
        "register": "https://ultrasignup.com/register.aspx?dtid=55122",
        "date": "June 8, 2024 08:30:00",
        "website": "https://ultrasignup.com/register.aspx?did=110296"
    },
    "Carkeek_12_Hour_(Virtual)": {
        "title": "Carkeek 12 Hour (Virtual)",
        "distances": [
            "12 Hour - Virtual",
            "6 Hour - Virtual"
        ],
        "location": ", ",
        "register": "https://ultrasignup.com/register.aspx?dtid=55123",
        "date": "October 31, 2024 07:00:00",
        "website": "http://www.endlesstrails.us/carkeek-12-hour.html"
    },
    "Sasquatch_Shuffle_(Virtual)": {
        "title": "Sasquatch Shuffle (Virtual)",
        "distances": [
            "50K - virtual",
            "30K - virtual",
            "20K - virtual"
        ],
        "location": ", ",
        "register": "https://ultrasignup.com/register.aspx?dtid=55124",
        "date": "October 1, 2024 08:00:00",
        "website": "http://www.endlesstrails.us/sasquatch-shuffle.html"
    },
    "Whiterock_Ultra": {
        "title": "Whiterock Ultra",
        "distances": [
            "50 Miler",
            "50K"
        ],
        "location": "Coon Rapids, IA",
        "latitude": 41.8708561,
        "longitude": -94.6781764,
        "register": "https://ultrasignup.com/register.aspx?dtid=55125",
        "date": "July 27, 2024 07:00:00",
        "website": "https://whiterockultra.com/"
    },
    "Grossglockner": {
        "title": "Grossglockner",
        "distances": [
            "100K",
            "55K"
        ],
        "location": "Kaprun, Austria",
        "latitude": 47.2713898,
        "longitude": 12.7573679,
        "register": "https://ultrasignup.com/register.aspx?dtid=55126",
        "date": "July 28, 2023 00:00:00",
        "website": "https://www.ultratrail.at/english/"
    },
    "Frozen_Gnome": {
        "title": "Frozen Gnome",
        "distances": [
            "50k Relay | 5 Person",
            "50k Relay | 2 Person",
            "50K",
            "10K"
        ],
        "location": "Crystal Lake, IL",
        "latitude": 42.2411344,
        "longitude": -88.3161965,
        "register": "https://ultrasignup.com/register.aspx?dtid=53978",
        "date": "January 6, 2024 07:45:00",
        "website": "http://www.runfrozengnome.com/"
    },
    "Iron_Furnace_Trail_Run": {
        "title": "Iron Furnace Trail Run",
        "distances": [
            "1/2 Marathon",
            "4.5 Miler"
        ],
        "location": "McArthur, OH",
        "latitude": 39.2464596,
        "longitude": -82.4784898,
        "register": "https://ultrasignup.com/register.aspx?dtid=55127",
        "date": "April 6, 2024 09:00:00",
        "website": "https://www.seotrevents.com/ironfurnace"
    },
    "Wildstrubel_by_UTMB": {
        "title": "Wildstrubel by UTMB",
        "distances": [
            "113K",
            "70K",
            "50K"
        ],
        "location": "Crans-Montana, Switzerland",
        "latitude": 46.3304899,
        "longitude": 7.526435803722132,
        "register": "https://ultrasignup.com/register.aspx?dtid=54981",
        "date": "September 15, 2023 00:00:00",
        "website": "https://utmb.world/wildstrubel"
    },
    "Steel_Rail_Fitness_Turkey_Day_5k": {
        "title": "Steel Rail Fitness Turkey Day 5k",
        "distances": [
            "3.1 Miler",
            "Mile"
        ],
        "location": "Summit, MS",
        "latitude": 31.2837867,
        "longitude": -90.4684315,
        "register": "https://ultrasignup.com/register.aspx?dtid=54672",
        "date": "November 25, 2023 08:45:00",
        "website": "https://www.facebook.com/crossfitmccomb/"
    },
    "Chippewa_Trail_Races": {
        "title": "Chippewa Trail Races",
        "distances": [
            "50K",
            "20 Miler",
            "10K"
        ],
        "location": "New Auburn, WI",
        "latitude": 45.2039571,
        "longitude": -91.5599756,
        "register": "https://ultrasignup.com/register.aspx?dtid=55128",
        "date": "April 27, 2024 08:00:00",
        "website": "https://www.facebook.com/Chippewa50k%20/"
    },
    "Hare_Mountain_100": {
        "title": "Hare Mountain 100",
        "distances": [
            "100 Miler",
            "50 Miler B",
            "50 Miler",
            "55K",
            "50K",
            "Marathon"
        ],
        "location": "Hagarville, AR",
        "latitude": 35.5156375,
        "longitude": -93.3249015,
        "register": "https://ultrasignup.com/register.aspx?dtid=55129",
        "date": "November 1, 2024 07:00:00",
        "website": "https://www.haremountain100.com/"
    },
    "Mindy_Creek_Trail_Races": {
        "title": "Mindy Creek Trail Races",
        "distances": [
            "Marathon",
            "Half-Marathon",
            "10K"
        ],
        "location": "St. Croix Falls, WI",
        "latitude": 45.4104918,
        "longitude": -92.6445824,
        "register": "https://ultrasignup.com/register.aspx?dtid=55130",
        "date": "August 24, 2024 07:00:00",
        "website": "https://www.facebook.com/profile.php?id=100064002546731"
    },
    "Trail_of_Fears": {
        "title": "Trail of Fears",
        "distances": [
            "Variable Distance"
        ],
        "location": "Jackson, TN",
        "latitude": 35.6144446,
        "longitude": -88.8177418,
        "register": "https://ultrasignup.com/register.aspx?dtid=55131",
        "date": "December 9, 2023 07:00:00",
        "website": "http://runitfast.com/trail-of-fears-the-day-after-the-world-ended/"
    },
    "The_Guzzler_Ultra": {
        "title": "The Guzzler Ultra",
        "distances": [
            "50K",
            "100K"
        ],
        "location": "Brisbane, Australia",
        "latitude": -27.4689682,
        "longitude": 153.0234991,
        "register": "https://ultrasignup.com/register.aspx?dtid=55132",
        "date": "July 22, 2023 00:00:00",
        "website": "https://www.theguzzlerultra.com.au"
    },
    "Rogue_Gorge": {
        "title": "Rogue Gorge",
        "distances": [
            "50K",
            "Half Marathon",
            "12K"
        ],
        "location": "Union Creek, OR",
        "latitude": 44.70809054002197,
        "longitude": -118.01688312500389,
        "register": "https://ultrasignup.com/register.aspx?dtid=55133",
        "date": "October 19, 2024 08:00:00",
        "website": "https://www.daybreakracing.com/rogue-gorge"
    },
    "Firewater_Ultra": {
        "title": "Firewater Ultra",
        "distances": [
            "100K",
            "50K - 2 Per Relay",
            "50K Sunrise",
            "50K Sunset"
        ],
        "location": "Greenback, TN",
        "latitude": 35.6611904,
        "longitude": -84.1721357,
        "register": "https://ultrasignup.com/register.aspx?dtid=55135",
        "date": "October 26, 2024 08:00:00",
        "website": "https://www.facebook.com/pages/Firewater-50k-and-100-Mile-Trail-Race/878874482154672"
    },
    "Cedro_Peak": {
        "title": "Cedro Peak",
        "distances": [
            "50K",
            "25K"
        ],
        "location": "Tijeras, NM",
        "latitude": 35.0796355,
        "longitude": -106.3879441,
        "register": "https://ultrasignup.com/register.aspx?dtid=55136",
        "date": "April 20, 2024 07:00:00",
        "website": "https://cedropeaktrailevent.wordpress.com"
    },
    "Ultraverse_Kansas_Slam": {
        "title": "Ultraverse Kansas Slam",
        "distances": [
            "Triple Slam"
        ],
        "location": "Sylvan Grove, KS, KS",
        "latitude": 39.009454,
        "longitude": -98.394228,
        "register": "https://ultrasignup.com/register.aspx?dtid=55137",
        "date": "April 20, 2024 08:00:00",
        "website": "https://ultraversesupplements.com/ultraverse-kansas-slam"
    },
    "Fallapple": {
        "title": "Fallapple",
        "distances": [
            "50 Miler",
            "50K"
        ],
        "location": "South Orange, NJ",
        "latitude": 40.7474966,
        "longitude": -74.2635376,
        "register": "https://ultrasignup.com/register.aspx?dtid=55138",
        "date": "September 9, 2023 00:00:00",
        "website": "https://sites.google.com/site/njtrailseries/"
    },
    "Ozark_Trail": {
        "title": "Ozark Trail",
        "distances": [
            "100 Miler"
        ],
        "location": "Steelville, MO",
        "latitude": 37.9680999,
        "longitude": -91.354868,
        "register": "https://ultrasignup.com/register.aspx?dtid=55139",
        "date": "October 28, 2023 00:00:00",
        "website": "http://www.ozarktrail100.com/"
    },
    "Creede_100": {
        "title": "Creede 100",
        "distances": [
            "100 Miler"
        ],
        "location": "Creede, CO",
        "latitude": 37.8483224,
        "longitude": -106.925476,
        "register": "https://ultrasignup.com/register.aspx?dtid=55140",
        "date": "July 27, 2024 08:00:00",
        "website": "https://www.tempestadventures.com"
    },
    "Jump_Off_Joe_Marathon": {
        "title": "Jump Off Joe Marathon",
        "distances": [
            "Marathon",
            "1/2 Marathon",
            "10k"
        ],
        "location": "Kennewick, WA",
        "latitude": 46.2087066,
        "longitude": -119.119919,
        "register": "https://ultrasignup.com/register.aspx?dtid=55141",
        "date": "September 7, 2024 07:00:00",
        "website": "https://www.deltaendurancellc.com/races/jump-off-joe-marathon"
    },
    "Rio_Grande_100": {
        "title": "Rio Grande 100",
        "distances": [
            "Rio Grande 100"
        ],
        "location": "South Fork, CO",
        "latitude": 37.6709304,
        "longitude": -106.6424954,
        "register": "https://ultrasignup.com/register.aspx?dtid=55142",
        "date": "August 24, 2024 08:00:00",
        "website": "https://www.tempestadventures.com/"
    },
    "Quad_Killer_Vertical_Kilometer": {
        "title": "Quad Killer Vertical Kilometer",
        "distances": [
            "Virtual VK"
        ],
        "location": "Benton City, WA",
        "latitude": 46.2631897,
        "longitude": -119.487802,
        "register": "https://ultrasignup.com/register.aspx?dtid=55143",
        "date": "October 7, 2024 10:00:00",
        "website": "https://www.deltaendurancellc.com/races/quad-killer-vk"
    },
    "Take_The_(b)Ridge": {
        "title": "Take The (b)Ridge",
        "distances": [
            "5.25 Miler"
        ],
        "location": "Tahoe City, CA",
        "latitude": 39.1689372,
        "longitude": -120.143478,
        "register": "https://ultrasignup.com/register.aspx?dtid=55144",
        "date": "June 22, 2023 00:00:00",
        "website": "https://bit.ly/3MtA8uB"
    },
    "Sovev_Emek": {
        "title": "Sovev Emek",
        "distances": [
            "166K"
        ],
        "location": "Zorea, Israel",
        "latitude": 32.6437923,
        "longitude": 35.1206465,
        "register": "https://ultrasignup.com/register.aspx?dtid=55145",
        "date": "October 14, 2021 00:00:00",
        "website": "https://sovev-emek.org/"
    },
    "East_Fork_100_mi/100K/50K/15_mi": {
        "title": "East Fork 100 mi/100K/50K/15 mi",
        "distances": [
            "100 Miler",
            "100K",
            "50K",
            "15 Miler"
        ],
        "location": "Bethel, OH",
        "latitude": 38.9636771,
        "longitude": -84.0807664,
        "register": "https://ultrasignup.com/register.aspx?dtid=55146",
        "date": "August 24, 2024 07:00:00",
        "website": "http://www.empowerultras.com"
    },
    "Teanaway_Country_100_&_Teeny-Way_50k": {
        "title": "Teanaway Country 100 & Teeny-Way 50k",
        "distances": [
            "100 Miler",
            "Teeny-Way 50k"
        ],
        "location": "Cle Elum, WA",
        "latitude": 47.1952417,
        "longitude": -120.940063,
        "register": "https://ultrasignup.com/register.aspx?dtid=55148",
        "date": "September 21, 2024 05:00:00",
        "website": "http://www.teanawaycountry100.com"
    },
    "Antelope_Canyon_X_Half_Marathon": {
        "title": "Antelope Canyon X Half Marathon",
        "distances": [
            "1/2 Marathon"
        ],
        "location": "LeChee Rock, AZ",
        "latitude": 35.6770403745319,
        "longitude": -109.06557889930308,
        "register": "https://ultrasignup.com/register.aspx?dtid=55150",
        "date": "April 21, 2024 07:00:00",
        "website": "https://www.facebook.com/groups/Moccasin-Running-Rainbow-Bridge-Trail-Ultra-421456151290592/"
    },
    "Sugg_Farm_Ultra": {
        "title": "Sugg Farm Ultra",
        "distances": [
            "50 Miler",
            "40 Miler",
            "20 Miler",
            "Pacer"
        ],
        "location": "Holly Springs, NC",
        "latitude": 35.6512655,
        "longitude": -78.8336218,
        "register": "https://ultrasignup.com/register.aspx?dtid=55151",
        "date": "September 14, 2024 07:05:00",
        "website": "https://www.suggfarmultra.com"
    },
    "Cactus_Rose": {
        "title": "Cactus Rose",
        "distances": [
            "100 Miler",
            "50 Miler"
        ],
        "location": "Bandera, TX",
        "latitude": 29.7643475,
        "longitude": -99.234526,
        "register": "https://ultrasignup.com/register.aspx?dtid=55152",
        "date": "October 28, 2023 00:00:00",
        "website": "http://www.tejastrails.com/#/cactus-rose/"
    },
    "Portland_Trail_Series_-_Spring": {
        "title": "Portland Trail Series - Spring",
        "distances": [
            "April 10",
            "April 24",
            "May 8",
            "May 22",
            "June 5",
            "Race Series"
        ],
        "location": "Portland, OR",
        "latitude": 45.5202471,
        "longitude": -122.674194,
        "register": "https://ultrasignup.com/register.aspx?dtid=55153",
        "date": "April 10, 2024 18:15:00",
        "website": "https://gobeyondracing.com/races/portland-trail-series/"
    },
    "The_Great_North_Caper": {
        "title": "The Great North Caper",
        "distances": [
            "15K",
            "4.25M"
        ],
        "location": "Gold Beach, OR",
        "latitude": 42.4074459,
        "longitude": -124.4217418,
        "register": "https://ultrasignup.com/register.aspx?dtid=55154",
        "date": "April 13, 2024 09:00:00",
        "website": "https://www.allterrainadventures.net"
    },
    "Secret_Beach_100K/50K": {
        "title": "Secret Beach 100K/50K",
        "distances": [
            "100K",
            "50K"
        ],
        "location": "Gold Beach, OR",
        "latitude": 42.4074459,
        "longitude": -124.4217418,
        "register": "https://ultrasignup.com/register.aspx?dtid=55155",
        "date": "May 11, 2024 06:00:00",
        "website": "https://www.allterrainadventures.net/"
    },
    "Golden_Ring": {
        "title": "Golden Ring",
        "distances": [
            "100K",
            "80K",
            "50K"
        ],
        "location": "Susdal, Russian Federation",
        "latitude": 56.4193908,
        "longitude": 40.4487893,
        "register": "https://ultrasignup.com/register.aspx?dtid=55156",
        "date": "July 23, 2023 00:00:00",
        "website": "http://www.goldenultra.ru/en"
    },
    "Restonica_Trail_by_UTMB": {
        "title": "Restonica Trail by UTMB",
        "distances": [
            "110K"
        ],
        "location": "Corte, France",
        "latitude": 42.3052904,
        "longitude": 9.1511935,
        "register": "https://ultrasignup.com/register.aspx?dtid=55159",
        "date": "July 5, 2023 00:00:00",
        "website": "https://www.restonicatrail.fr/"
    },
    "Ultra_Trail_du_Fjord-du-Saguenay": {
        "title": "Ultra Trail du Fjord-du-Saguenay",
        "distances": [
            "160K",
            "100K",
            "50K"
        ],
        "location": "L'Anse-Saint-Jean, QC",
        "latitude": 48.235223,
        "longitude": -70.20101,
        "register": "https://ultrasignup.com/register.aspx?dtid=55160",
        "date": "August 12, 2023 00:00:00",
        "website": "https://www.ultratrailfjord.com/"
    },
    "Crush_Cary_12_Hour": {
        "title": "Crush Cary 12 Hour",
        "distances": [
            "12hrs"
        ],
        "location": "Cary, IL",
        "latitude": 42.2119684,
        "longitude": -88.2381381,
        "register": "https://ultrasignup.com/register.aspx?dtid=55161",
        "date": "August 10, 2024 00:00:00",
        "website": "https://www.facebook.com/events/s/final-tuneup-midwest-states-10/1384560512438808/?mibextid=RQdjqZ"
    },
    "Weekend_at_Burney": {
        "title": "Weekend at Burney",
        "distances": [
            ""
        ],
        "location": "Burney, CA",
        "latitude": 40.888414499999996,
        "longitude": -121.67278262034247,
        "register": "https://ultrasignup.com/register.aspx?dtid=53120",
        "date": "October 25, 2024 08:00:00",
        "website": "https://jeniferrishel.wixsite.com/intermountain-endura"
    },
    "Rocky_Gap_25K,_50K,_Relay_Trail_Run": {
        "title": "Rocky Gap 25K, 50K, Relay Trail Run",
        "distances": [
            "50K"
        ],
        "location": "Flintstone, MD",
        "latitude": 39.7031435,
        "longitude": -78.5677936,
        "register": "https://ultrasignup.com/register.aspx?dtid=55163",
        "date": "October 14, 2023 00:00:00",
        "website": "https://ex2adventures.com/trail-running/rocky-gap-25k-50k-relay-trail-run/"
    },
    "Canyonlands_Ultra": {
        "title": "Canyonlands Ultra",
        "distances": [
            "100K",
            "50 Mile",
            "50K",
            "Marathon",
            "Half Marathon",
            "15k"
        ],
        "location": "Moab, UT",
        "latitude": 38.5738096,
        "longitude": -109.546214,
        "register": "https://ultrasignup.com/register.aspx?dtid=55165",
        "date": "October 26, 2024 06:00:00",
        "website": "https://www.madmooseevents.com/canyonlands-ultra"
    },
    "Old_Dominion": {
        "title": "Old Dominion",
        "distances": [
            "100 Miler"
        ],
        "location": "Fort Valley, VA",
        "latitude": 32.5537585,
        "longitude": -83.8874084,
        "register": "https://ultrasignup.com/register.aspx?dtid=55166",
        "date": "June 1, 2024 04:00:00",
        "website": "http://www.olddominionrun.com/"
    },
    "Resolution_5K": {
        "title": "Resolution 5K",
        "distances": [
            "5K"
        ],
        "location": "Mint Hill, NC",
        "latitude": 35.1735388,
        "longitude": -80.6570377,
        "register": "https://ultrasignup.com/register.aspx?dtid=55167",
        "date": "January 1, 2024 08:00:00",
        "website": "http://www.omrultra.com"
    },
    "Tyoga_Running_Club": {
        "title": "Tyoga Running Club",
        "distances": [
            ""
        ],
        "location": "Wellsboro, PA",
        "latitude": 41.7486838,
        "longitude": -77.3005305,
        "register": "https://ultrasignup.com/register.aspx?dtid=55168",
        "date": "December 31, 2024 07:00:00",
        "website": "http://www.tyogarunningclub.com"
    },
    "Mantario_Marathon": {
        "title": "Mantario Marathon",
        "distances": [
            "2-Day Stage Event"
        ],
        "location": "Whiteshell, MB",
        "latitude": 50.024491,
        "longitude": -95.4195391462556,
        "register": "https://ultrasignup.com/register.aspx?dtid=55169",
        "date": "September 28, 2024 10:00:00",
        "website": "https://mantario-marathon.webnode.page"
    },
    "Team_Red_Shamrock_Trail_Challenge": {
        "title": "Team Red Shamrock Trail Challenge",
        "distances": [
            "10 mile",
            "5K"
        ],
        "location": "Coralville, IA",
        "latitude": 41.6759977,
        "longitude": -91.580705,
        "register": "https://ultrasignup.com/register.aspx?dtid=55170",
        "date": "April 6, 2024 09:00:00",
        "website": "https://www.facebook.com/TeamRedShamrockTrailChallenge"
    },
    "Echappee_Belle": {
        "title": "Echappee Belle",
        "distances": [
            "85K",
            "145K"
        ],
        "location": "Pleynet, France",
        "latitude": 45.5790696,
        "longitude": 4.0030535,
        "register": "https://ultrasignup.com/register.aspx?dtid=55172",
        "date": "August 29, 2014 00:00:00",
        "website": "https://www.lechappeebelledonne.com/en/"
    },
    "Iron_Will_Double_Slam": {
        "title": "Iron Will Double Slam",
        "distances": [
            "Iron Will Double Slam 849"
        ],
        "location": "Enterprise, KS",
        "latitude": 38.902778,
        "longitude": -97.116962,
        "register": "https://ultrasignup.com/register.aspx?dtid=55171",
        "date": "September 7, 2024 06:00:00",
        "website": "https://www.facebook.com"
    },
    "Capitol_Hill_Bois_Winter_Ultra_#1": {
        "title": "Capitol Hill Bois Winter Ultra #1",
        "distances": [
            "50K"
        ],
        "location": "Seattle, WA",
        "latitude": 47.6038321,
        "longitude": -122.330062,
        "register": "https://ultrasignup.com/register.aspx?dtid=55173",
        "date": "December 16, 2023 08:30:00",
        "website": "https://www.facebook.com/events/1666094747200909/?acontext=%7B%22ref%22%3A%2252%22%2C%22action_history%22%3A%22[%7B%5C%22surface%5C%22%3A%5C%22share_l"
    },
    "Frosty_Mountain": {
        "title": "Frosty Mountain",
        "distances": [
            "50K"
        ],
        "location": "Manning Park, BC",
        "latitude": 49.063255,
        "longitude": -120.7746225,
        "register": "https://ultrasignup.com/register.aspx?dtid=55174",
        "date": "September 16, 2023 00:00:00",
        "website": "http://www.trailwhisperer.ca/FrostyMountain/"
    },
    "Black_River_Trail_Classic": {
        "title": "Black River Trail Classic",
        "distances": [
            "85K",
            "50K"
        ],
        "location": "Millston, WI",
        "latitude": 44.1930179,
        "longitude": -90.6476354,
        "register": "https://ultrasignup.com/register.aspx?dtid=55175",
        "date": "October 21, 2023 00:00:00",
        "website": "https://nurun.co/brtc"
    },
    "Lake_Chabot": {
        "title": "Lake Chabot",
        "distances": [
            "50K"
        ],
        "location": "Castro Valley, CA",
        "latitude": 37.71360595,
        "longitude": -122.07156581367964,
        "register": "https://ultrasignup.com/register.aspx?dtid=55176",
        "date": "November 4, 2023 00:00:00",
        "website": "http://www.coastaltrailruns.com/lc_lake_chabot.html"
    },
    "Silver_Falls": {
        "title": "Silver Falls",
        "distances": [
            "50K",
            "Marathon",
            "1/2 Marathon"
        ],
        "location": "Silverton, OR",
        "latitude": 45.0049305,
        "longitude": -122.7832947,
        "register": "https://ultrasignup.com/register.aspx?dtid=55177",
        "date": "November 5, 2023 00:00:00",
        "website": "http://www.silverfallsmarathon.com"
    },
    "Ultra_Trail_Cape_Town": {
        "title": "Ultra Trail Cape Town",
        "distances": [
            "100K",
            "65K"
        ],
        "location": "Cape Town, WC",
        "latitude": -33.9288301,
        "longitude": 18.4172197,
        "register": "https://ultrasignup.com/register.aspx?dtid=49646",
        "date": "November 11, 2021 00:00:00",
        "website": "http://www.ultratrailcapetown.com"
    },
    "Austin_Rattler_Run": {
        "title": "Austin Rattler Run",
        "distances": [
            "50K"
        ],
        "location": "Smithville, TX",
        "latitude": 30.0056275,
        "longitude": -97.1559077,
        "register": "https://ultrasignup.com/register.aspx?dtid=55178",
        "date": "November 4, 2023 00:00:00",
        "website": "http://www.austinrattlermtb.com"
    },
    "Zumbro_Endurance_Run": {
        "title": "Zumbro Endurance Run",
        "distances": [
            "100 Miler",
            "50 Miler",
            "34 Miler",
            "17 Miler"
        ],
        "location": "Theilman, MN",
        "latitude": 44.2891334,
        "longitude": -92.1921164,
        "register": "https://ultrasignup.com/register.aspx?dtid=55179",
        "date": "April 11, 2024 08:00:00",
        "website": "http://www.zumbroendurancerun.com/"
    },
    "Run_the_Ridge_5K": {
        "title": "Run the Ridge 5K",
        "distances": [
            "5K",
            "5k Virtual Runners",
            "1-MILE TURTLE TROT"
        ],
        "location": "Fayetteville, GA",
        "latitude": 33.4487257,
        "longitude": -84.4549262,
        "register": "https://ultrasignup.com/register.aspx?dtid=55180",
        "date": "February 10, 2024 09:30:00",
        "website": "https://sctlandtrust.org/run-the-ridge-5k/"
    },
    "Trail_Prom": {
        "title": "Trail Prom",
        "distances": [
            "Team Trail Race"
        ],
        "location": "Fabius, NY",
        "latitude": 42.835067,
        "longitude": -75.9860322,
        "register": "https://ultrasignup.com/register.aspx?dtid=55181",
        "date": "May 26, 2024 08:00:00",
        "website": "https://www.reluctantrunnerracing.com/madness-elimination-trail"
    },
    "Swamp_Stomper_50k/25k": {
        "title": "Swamp Stomper 50k/25k",
        "distances": [
            "50K",
            "25K"
        ],
        "location": "Millington, TN",
        "latitude": 35.3414745,
        "longitude": -89.8973084,
        "register": "https://ultrasignup.com/register.aspx?dtid=55183",
        "date": "January 13, 2024 07:30:00",
        "website": "https://ultrasignup.com/register.aspx?did=120958"
    },
    "Pike_Lake_Ultramarathon": {
        "title": "Pike Lake Ultramarathon",
        "distances": [
            "60K"
        ],
        "location": "Bainbridge, OH",
        "latitude": 39.2275658,
        "longitude": -83.2704663,
        "register": "https://ultrasignup.com/register.aspx?dtid=55184",
        "date": "October 28, 2023 00:00:00",
        "website": "https://ultrasignup.com/events/search.aspx"
    },
    "Afton_Trail_Run": {
        "title": "Afton Trail Run",
        "distances": [
            "50K",
            "25K"
        ],
        "location": "Afton, MN",
        "latitude": 44.9027452,
        "longitude": -92.7835373,
        "register": "https://ultrasignup.com/register.aspx?dtid=55185",
        "date": "July 6, 2024 06:30:00",
        "website": "http://www.AftonTrailRun.com/"
    },
    "Rio_Del_Lago": {
        "title": "Rio Del Lago",
        "distances": [
            "50K",
            "100 Miler"
        ],
        "location": "Granite Bay, CA",
        "latitude": 38.762173000000004,
        "longitude": -121.18500570860975,
        "register": "https://ultrasignup.com/register.aspx?dtid=55186",
        "date": "November 4, 2023 00:00:00",
        "website": "http://www.rio100mile.com"
    },
    "Brazos_Bend_100": {
        "title": "Brazos Bend 100",
        "distances": [
            "100 Miler",
            "100K",
            "100 Mile Pacer",
            "100K Pacer",
            "Marathon",
            "1/2 Marathon",
            "10k"
        ],
        "location": "Needville, TX",
        "latitude": 29.3974305,
        "longitude": -95.8380978,
        "register": "https://ultrasignup.com/register.aspx?dtid=51369",
        "date": "January 6, 2024 12:00:00",
        "website": "http://www.trailracingovertexas.com/brazos-100/"
    },
    "Superior_Spring_Trail_Race": {
        "title": "Superior Spring Trail Race",
        "distances": [
            "50K",
            "25K",
            "12.5K"
        ],
        "location": "Lutsen, MN",
        "latitude": 47.6470829,
        "longitude": -90.674866,
        "register": "https://ultrasignup.com/register.aspx?dtid=55187",
        "date": "May 18, 2024 07:00:00",
        "website": "http://www.superiorspringtrailrace.com"
    },
    "Superior_Fall_Trail_Race": {
        "title": "Superior Fall Trail Race",
        "distances": [
            "100 Miler",
            "50 Miler",
            "Marathon"
        ],
        "location": "Lutsen, MN",
        "latitude": 47.6470829,
        "longitude": -90.674866,
        "register": "https://ultrasignup.com/register.aspx?dtid=55188",
        "date": "September 6, 2024 08:00:00",
        "website": "http://www.superiorfalltrailrace.com"
    },
    "Endless_Summer_Trail_Run_Series": {
        "title": "Endless Summer Trail Run Series",
        "distances": [
            "Lebanon 10K",
            "French 5K",
            "Lebanon 7 Mile",
            "Spring Lake 5 Mile"
        ],
        "location": "Multiple Locations, MN",
        "register": "https://ultrasignup.com/register.aspx?dtid=55189",
        "date": "May 22, 2024 18:30:00",
        "website": "http://www.endlesssummertrailrunseries.com/"
    },
    "Egg_Nog_Slog_1_Mile_All_Star_Classic": {
        "title": "Egg Nog Slog 1 Mile All Star Classic",
        "distances": [
            "Dairy Division",
            "Non-Dairy Division"
        ],
        "location": "West Orange, NJ",
        "latitude": 40.7987113,
        "longitude": -74.2390353,
        "register": "https://ultrasignup.com/register.aspx?dtid=55191",
        "date": "December 3, 2023 10:00:00",
        "website": "https://www.sassquadtrailrunning.com/eggnog"
    },
    "TrailsRoc_Last_Runner_Standing": {
        "title": "TrailsRoc Last Runner Standing",
        "distances": [
            "Time Loop"
        ],
        "location": "Rochester, NY",
        "latitude": 43.157285,
        "longitude": -77.615214,
        "register": "https://ultrasignup.com/register.aspx?dtid=55193",
        "date": "March 9, 2024 08:00:00",
        "website": "https://trailsroc.org/last-runner-standing/"
    },
    "Bridgeport_Trail_Run": {
        "title": "Bridgeport Trail Run",
        "distances": [
            "54K",
            "36K",
            "18K",
            "10K"
        ],
        "location": "Bridgeport, TX",
        "latitude": 33.2101155,
        "longitude": -97.7547552,
        "register": "https://ultrasignup.com/register.aspx?dtid=55195",
        "date": "February 17, 2024 07:30:00",
        "website": "https://blazetrails.com/bridgeport-trail-run/?utm_source=ultrasignup&utm_medium=web&utm_campaign=website-link"
    },
    "Gone_Fir_A_Run_50K": {
        "title": "Gone Fir A Run 50K",
        "distances": [
            "Gone Fir A Run 50K"
        ],
        "location": "Spokane, WA",
        "latitude": 47.6571934,
        "longitude": -117.42351,
        "register": "https://ultrasignup.com/register.aspx?dtid=55196",
        "date": "September 28, 2024 08:00:00",
        "website": "https://www.facebook.com/gonefirarun50k"
    },
    "Machete_Trail_Madness_100k": {
        "title": "Machete Trail Madness 100k",
        "distances": [
            "100k",
            "50K",
            "10K"
        ],
        "location": "Perris, CA",
        "latitude": 33.7818729,
        "longitude": -117.2298477,
        "register": "https://ultrasignup.com/register.aspx?dtid=55197",
        "date": "April 13, 2024 06:00:00",
        "website": "https://www.machetemadness.com/"
    },
    "Machete_Trail_Madness_100_Miler": {
        "title": "Machete Trail Madness 100 Miler",
        "distances": [
            "100 Miler",
            "50 Miler",
            "10 Miler"
        ],
        "location": "Perris, CA",
        "latitude": 33.7818729,
        "longitude": -117.2298477,
        "register": "https://ultrasignup.com/register.aspx?dtid=55198",
        "date": "November 1, 2024 18:30:00",
        "website": "https://www.machetemadness.com/"
    },
    "Drummer_Hill_Trail_Races": {
        "title": "Drummer Hill Trail Races",
        "distances": [
            "50K",
            "37.5K",
            "25K",
            "12.5K"
        ],
        "location": "Keene, NH",
        "latitude": 42.933597,
        "longitude": -72.2784264,
        "register": "https://ultrasignup.com/register.aspx?dtid=55199",
        "date": "June 8, 2024 08:00:00",
        "website": "https://www.scoresrunningclub.com/drummer-hill-trail-race.html"
    },
    "3_Legged_Monster_Race": {
        "title": "3 Legged Monster Race",
        "distances": [
            "55M 2 Per Relay",
            "33M 2 Per Relay"
        ],
        "location": "Steelville, MO",
        "latitude": 37.9680999,
        "longitude": -91.354868,
        "register": "https://ultrasignup.com/register.aspx?dtid=55201",
        "date": "August 17, 2024 07:30:00",
        "website": "http://www.ozarktrail.com"
    },
    "Sri_Chinmoy_6_Day_Race_-_NY": {
        "title": "Sri Chinmoy 6 Day Race - NY",
        "distances": [
            "6 Days"
        ],
        "location": "Queens, NY",
        "latitude": 40.6515585,
        "longitude": -73.79267536317502,
        "register": "https://ultrasignup.com/register.aspx?dtid=55202",
        "date": "April 18, 2022 00:00:00",
        "website": "http://www.srichinmoyraces.us/"
    },
    "Hiihto_Relay_Race": {
        "title": "Hiihto Relay Race",
        "distances": [
            "13.2 K Relay"
        ],
        "location": "Saint Paul, MN",
        "latitude": 44.9497487,
        "longitude": -93.0931028,
        "register": "https://ultrasignup.com/register.aspx?dtid=55209",
        "date": "January 1, 2024 12:00:00",
        "website": "https://www.finnsisu.com/blogs/news/finn-sisu-hiihto-relay-race/"
    },
    "Frog_Hill_Half/10k/5k_and_Frog_Hill_Challenge": {
        "title": "Frog Hill Half/10k/5k and Frog Hill Challenge",
        "distances": [
            ""
        ],
        "location": "Waynesville, MO",
        "latitude": 37.8141419,
        "longitude": -92.2266876,
        "register": "https://ultrasignup.com/register.aspx?dtid=55212",
        "date": "October 5, 2024 08:00:00",
        "website": "http://www.froghillhalf.com"
    },
    "Corner_Canyon_5k_Series": {
        "title": "Corner Canyon 5k Series",
        "distances": [
            ""
        ],
        "location": "Draper, UT",
        "latitude": 40.5247777,
        "longitude": -111.8627989,
        "register": "https://ultrasignup.com/register.aspx?dtid=55213",
        "date": "May 1, 2024 09:00:00",
        "website": "https://www.happytrailsrace.com/happy-trails-5k-series"
    },
    "Walk_in_the_Park": {
        "title": "Walk in the Park",
        "distances": [
            "50K",
            "25K",
            "14K"
        ],
        "location": "Kamloops, BC",
        "latitude": 50.6758269,
        "longitude": -120.339415,
        "register": "https://ultrasignup.com/register.aspx?dtid=55214",
        "date": "September 8, 2024 07:00:00",
        "website": "https://www.solepursuitrunning.ca/walk-in-the-park"
    },
    "OSS/CIA_50_Mile_Night_Run": {
        "title": "OSS/CIA 50 Mile Night Run",
        "distances": [
            "50 Miler",
            "25M"
        ],
        "location": "Triangle, VA",
        "latitude": 38.5451489,
        "longitude": -77.3327425,
        "register": "https://ultrasignup.com/register.aspx?dtid=55215",
        "date": "June 8, 2024 23:55:00",
        "website": "https://athletic-equation.com/endurance-events/the-ultrail-series/osscia-50-mile-night-run-2/"
    },
    "12_Hour_-_Adventure_Trail_Run": {
        "title": "12 Hour - Adventure Trail Run",
        "distances": [
            "30KM",
            "12hrs",
            "2 Person Relay"
        ],
        "location": "Triangle, VA",
        "latitude": 38.5451489,
        "longitude": -77.3327425,
        "register": "https://ultrasignup.com/register.aspx?dtid=55216",
        "date": "September 14, 2024 06:00:00",
        "website": "https://athletic-equation.com/endurance-events/the-ultrail-series/12-hr-adventure-trail-run/"
    },
    "High_Lea_6/12/24_hour": {
        "title": "High Lea 6/12/24 hour",
        "distances": [
            "100 Mile",
            "24 Hour",
            "12 Hour",
            "6 Hour"
        ],
        "location": "Richfield, OH",
        "latitude": 41.2397772,
        "longitude": -81.6381785,
        "register": "https://ultrasignup.com/register.aspx?dtid=54856",
        "date": "May 18, 2024 06:00:00",
        "website": "http://www.fastgirlsrunningcompany.com"
    },
    "NEB_Pink_Panther_5K": {
        "title": "NEB Pink Panther 5K",
        "distances": [
            "5K"
        ],
        "location": "Rome, PA",
        "latitude": 41.8584081,
        "longitude": -76.3407699,
        "register": "https://ultrasignup.com/register.aspx?dtid=55217",
        "date": "April 6, 2024 09:30:00",
        "website": "https://www.facebook.com/pinkpanther5k"
    },
    "Sage_Burner_Trail_Race": {
        "title": "Sage Burner Trail Race",
        "distances": [
            "50K",
            "28K",
            "15K"
        ],
        "location": "Gunnison, CO",
        "latitude": 38.6476702,
        "longitude": -107.0603126,
        "register": "https://ultrasignup.com/register.aspx?dtid=55218",
        "date": "October 12, 2024 08:00:00",
        "website": "https://www.oneloveendurance.com/sageburnertrailrace"
    },
    "Rockin_Choccolocco_50K_-_1/2_Marathon_-_10K": {
        "title": "Rockin Choccolocco 50K - 1/2 Marathon - 10K",
        "distances": [
            "50K",
            "1/2 Marathon",
            "10K"
        ],
        "location": "Heflin , AL",
        "latitude": 33.6489948,
        "longitude": -85.5874584,
        "register": "https://ultrasignup.com/register.aspx?dtid=54943",
        "date": "April 27, 2024 08:00:00",
        "website": "http://www.pinhotitrailseries.com"
    },
    "Green_K_Run": {
        "title": "Green K Run",
        "distances": [
            "5Miler"
        ],
        "location": "Girdwood, AK",
        "latitude": 60.9441989,
        "longitude": -149.174104,
        "register": "https://ultrasignup.com/register.aspx?dtid=55221",
        "date": "December 17, 2023 05:00:00",
        "website": "http://automationtestrefund.com"
    },
    "Truth_or_Consequences_Ultra": {
        "title": "Truth or Consequences Ultra",
        "distances": [
            "50K",
            "Half Marathon",
            "10K"
        ],
        "location": "Truth or Consequences, NM",
        "latitude": 33.1283485,
        "longitude": -107.2529059,
        "register": "https://ultrasignup.com/register.aspx?dtid=55222",
        "date": "October 26, 2024 07:00:00",
        "website": "http://runtorc.com"
    },
    "Tava_Canyons_Trail_Runs": {
        "title": "Tava Canyons Trail Runs",
        "distances": [
            "26 Miler",
            "13 Miler"
        ],
        "location": "Colorado Springs, CO",
        "latitude": 38.8339578,
        "longitude": -104.825348,
        "register": "https://ultrasignup.com/register.aspx?dtid=55223",
        "date": "May 11, 2024 08:00:00",
        "website": "https://www.revenantrunning.com/tava-canons-ultra"
    },
    "The_Osprey_Trail_Run": {
        "title": "The Osprey Trail Run",
        "distances": [
            "25K",
            "8K",
            "8k Walk"
        ],
        "location": "Ft. Pierce, FL",
        "latitude": 27.4467056,
        "longitude": -80.3256056,
        "register": "https://ultrasignup.com/register.aspx?dtid=55226",
        "date": "September 21, 2024 07:00:00",
        "website": "https://runtheosprey.com"
    },
    "The_Gemini_100": {
        "title": "The Gemini 100",
        "distances": [
            "100 Miler",
            "Pacer Registration",
            "50 Miler",
            "36hrs",
            "24hrs"
        ],
        "location": "Smyrna, GA",
        "latitude": 33.883887,
        "longitude": -84.5147454,
        "register": "https://ultrasignup.com/register.aspx?dtid=55010",
        "date": "September 21, 2024 09:00:00",
        "website": "https://www.facebook.com/jamz524.jmgmail/"
    },
    "The_Great_North_Walk": {
        "title": "The Great North Walk",
        "distances": [
            "100 Miler",
            "100K",
            "50 Miler",
            "50K"
        ],
        "location": "Newcastle, Australia",
        "latitude": -32.9192953,
        "longitude": 151.7795348,
        "register": "https://ultrasignup.com/register.aspx?dtid=55229",
        "date": "October 29, 2023 00:00:00",
        "website": "http://www.terrigaltrotters.com.au/GNW100s_Home_Page.htm"
    },
    "Coyote_Trail_Run": {
        "title": "Coyote Trail Run",
        "distances": [
            ""
        ],
        "location": "Cleburne, TX",
        "latitude": 32.3474463,
        "longitude": -97.3865494,
        "register": "https://ultrasignup.com/register.aspx?dtid=55230",
        "date": "June 8, 2024 06:00:00",
        "website": "https://blazetrails.com"
    },
    "Possums_Revenge": {
        "title": "Possum's Revenge",
        "distances": [
            "69 Miler",
            "52 Miler",
            "56K",
            "17 Miler",
            "8 Miler",
            "4 Miler"
        ],
        "location": "Graford, TX",
        "latitude": 32.9376218,
        "longitude": -98.2469919,
        "register": "https://ultrasignup.com/register.aspx?dtid=55231",
        "date": "May 18, 2024 06:00:00",
        "website": "https://blazetrails.com"
    },
    "Wingfoot_Lake_Run": {
        "title": "Wingfoot Lake Run",
        "distances": [
            "4 hour run"
        ],
        "location": "Mogadore, OH",
        "latitude": 41.050775,
        "longitude": -81.393946,
        "register": "https://ultrasignup.com/register.aspx?dtid=55234",
        "date": "December 17, 2023 10:00:00",
        "website": "https://fastgirlsrunningcompany.com/"
    },
    "Marquette_Trail_50": {
        "title": "Marquette Trail 50",
        "distances": [
            "50 Miler",
            "50K",
            "Adult 5K",
            "Kids 5K",
            "1 Miler"
        ],
        "location": "Marquette, MI",
        "latitude": 46.4481521,
        "longitude": -87.6305899,
        "register": "https://ultrasignup.com/register.aspx?dtid=55235",
        "date": "August 16, 2024 05:30:00",
        "website": "http://www.marquettetrail50.com/"
    },
    "USU_Demo_Event": {
        "title": "USU Demo Event",
        "distances": [
            ""
        ],
        "location": "Denver, CO",
        "latitude": 39.7392364,
        "longitude": -104.984862,
        "register": "https://ultrasignup.com/register.aspx?dtid=55236",
        "date": "February 15, 2024 07:00:00",
        "website": "https://ultrasignup.com"
    },
    "West_Virginia_Trilogy": {
        "title": "West Virginia Trilogy",
        "distances": [
            "94 Miler",
            "50 Miler",
            "50K",
            "1/2 Marathon"
        ],
        "location": "Circleville, WV",
        "latitude": 38.6709481,
        "longitude": -79.4911597,
        "register": "https://ultrasignup.com/register.aspx?dtid=55237",
        "date": "September 13, 2023 00:00:00",
        "website": "http://www.wvmtr.org/races/"
    },
    "TPK_Adventurous_AF": {
        "title": "TPK Adventurous AF",
        "distances": [
            "6 Hour",
            "5K"
        ],
        "location": "Sparta, NJ",
        "latitude": 41.0401567,
        "longitude": -74.6310081,
        "register": "https://ultrasignup.com/register.aspx?dtid=55241",
        "date": "April 13, 2024 09:00:00",
        "website": "https://twopunkkids.com/adventurous-af"
    },
    "Damon_S._Young_Memorial_Race": {
        "title": "Damon S. Young Memorial Race",
        "distances": [
            "1/2 Marathon",
            "10K Run",
            "5K Run/Walk",
            "2 Mile Fun Walk"
        ],
        "location": "Tunkhannock, PA",
        "latitude": 41.5385159,
        "longitude": -75.946844,
        "register": "https://ultrasignup.com/register.aspx?dtid=55242",
        "date": "June 15, 2024 09:30:00",
        "website": "https://www.facebook.com/damon.race"
    },
    "Pinhoti": {
        "title": "Pinhoti",
        "distances": [
            "Pinhoti 100"
        ],
        "location": "Sylacauga, AL",
        "latitude": 33.1731716,
        "longitude": -86.2516406,
        "register": "https://ultrasignup.com/register.aspx?dtid=55243",
        "date": "November 2, 2024 06:00:00",
        "website": "http://www.pinhotitrailseries.com"
    },
    "Crown_of_the_Crest": {
        "title": "Crown of the Crest",
        "distances": [
            "Double Crown",
            "100 Mile",
            "26.2 Mile",
            "Crown Half Marathon",
            "Lucky 13"
        ],
        "location": "Fremont, NE",
        "latitude": 41.4338363,
        "longitude": -96.4960449,
        "register": "https://ultrasignup.com/register.aspx?dtid=53595",
        "date": "May 25, 2024 07:00:00",
        "website": "https://goatz.org/"
    },
    "Weiser_River_50k_Ultra_&_Relay": {
        "title": "Weiser River 50k Ultra & Relay",
        "distances": [
            "50K",
            "50k Relay",
            "Adaptive Athletes"
        ],
        "location": "Council, ID",
        "latitude": 44.7298876,
        "longitude": -116.438198,
        "register": "https://ultrasignup.com/register.aspx?dtid=55244",
        "date": "April 27, 2024 08:00:00",
        "website": "https://www.pulserunning.com/weiser-river-50k"
    },
    "La_Nuit": {
        "title": "La Nuit",
        "distances": [
            "9hrs",
            "9 Hour Relay",
            "6hrs",
            "3hrs",
            "10K",
            "5K",
            "1 Miler"
        ],
        "location": "Dallas, TX",
        "latitude": 32.7762719,
        "longitude": -96.7968559,
        "register": "https://ultrasignup.com/register.aspx?dtid=55245",
        "date": "July 26, 2024 19:30:00",
        "website": "http://beta.equipdisciples.org/run4bibles/night"
    },
    "Red_Rocks_of_Sedona": {
        "title": "Red Rocks of Sedona",
        "distances": [
            "Marathon",
            "20 Miler",
            "10 Miler"
        ],
        "location": "Sedona, AZ",
        "latitude": 34.8688613,
        "longitude": -111.7614394,
        "register": "https://ultrasignup.com/register.aspx?dtid=55246",
        "date": "October 19, 2024 07:45:00",
        "website": "http://www.trailrunningescapes.com/rrs.html"
    },
    "Dawn_to_Dusk_Endurance_Run": {
        "title": "Dawn to Dusk Endurance Run",
        "distances": [
            "24hrs",
            "15.5hrs",
            "Dusk to Dawn",
            "8hrs",
            "6hrs"
        ],
        "location": "Valders, WI",
        "latitude": 44.0661044,
        "longitude": -87.8842583,
        "register": "https://ultrasignup.com/register.aspx?dtid=55249",
        "date": "June 22, 2024 05:07:00",
        "website": "http://www.DawntoDuskEnduranceRun.com/"
    },
    "Chief_Wetona_Challenges": {
        "title": "Chief Wetona Challenges",
        "distances": [
            "7 Miler",
            "4 Miler"
        ],
        "location": "Ulster, PA",
        "latitude": 41.8460199,
        "longitude": -76.5022846,
        "register": "https://ultrasignup.com/register.aspx?dtid=55251",
        "date": "May 19, 2024 10:30:00",
        "website": "https://www.facebook.com/groups/570121143067993"
    },
    "Popple_Shoot_Trail_Races": {
        "title": "Popple Shoot Trail Races",
        "distances": [
            "87K",
            "62K",
            "25K",
            "10K"
        ],
        "location": "Minong, WI",
        "latitude": 46.1003414,
        "longitude": -91.8238136,
        "register": "https://ultrasignup.com/register.aspx?dtid=55252",
        "date": "May 4, 2024 06:00:00",
        "website": "https://www.bigslorunning.com/"
    },
    "Ugly_Sweater_Run": {
        "title": "Ugly Sweater Run",
        "distances": [
            "10K",
            "5K"
        ],
        "location": "Del Rio, TX",
        "latitude": 29.357515,
        "longitude": -100.8987707,
        "register": "https://ultrasignup.com/register.aspx?dtid=55253",
        "date": "December 23, 2023 08:00:00",
        "website": "https://www.facebook.com/bruniruni"
    },
    "The_Endless_Mile": {
        "title": "The Endless Mile",
        "distances": [
            "72hrs",
            "48hrs",
            "24hrs",
            "12hrs",
            "6hrs",
            "Endless Mile 50K",
            "Endless Mile Marathon"
        ],
        "location": "Alabaster, AL",
        "latitude": 33.2442813,
        "longitude": -86.8163773,
        "register": "https://ultrasignup.com/register.aspx?dtid=55254",
        "date": "October 24, 2024 09:00:00",
        "website": "http://www.southeasterntrailruns.com"
    },
    "Mamba_100": {
        "title": "Mamba 100",
        "distances": [
            "100 Miler",
            "100K",
            "50K",
            "25K"
        ],
        "location": "Memphis, TN",
        "latitude": 35.1460249,
        "longitude": -90.0517638,
        "register": "https://ultrasignup.com/register.aspx?dtid=55255",
        "date": "November 8, 2024 07:00:00",
        "website": "http://www.mambatrailrunners.com"
    },
    "Rim_to_River_100": {
        "title": "Rim to River 100",
        "distances": [
            "100 Miler",
            "Pacer Registration"
        ],
        "location": "New River Gorge, WV",
        "latitude": 37.89673105,
        "longitude": -81.0429734293038,
        "register": "https://ultrasignup.com/register.aspx?dtid=55256",
        "date": "October 26, 2024 06:00:00",
        "website": "http://www.rimtoriverendurance.com"
    },
    "Quad_Rock_50": {
        "title": "Quad Rock 50",
        "distances": [
            "50 Miler",
            "25 Miler"
        ],
        "location": "Fort Collins, CO",
        "latitude": 40.5871782,
        "longitude": -105.0770113,
        "register": "https://ultrasignup.com/register.aspx?dtid=55257",
        "date": "May 11, 2024 05:30:00",
        "website": "http://gnarrunners.com/quad-rock-50/"
    },
    "Shinetsu_Five_Mountains_Trail": {
        "title": "Shinetsu Five Mountains Trail",
        "distances": [
            "100 Miler",
            "110K"
        ],
        "location": "Myoko, Japan",
        "latitude": 37.0252467,
        "longitude": 138.253635,
        "register": "https://ultrasignup.com/register.aspx?dtid=55258",
        "date": "September 16, 2023 00:00:00",
        "website": "http://www.sfmt100.com/en/"
    },
    "Never_Summer_100km": {
        "title": "Never Summer 100km",
        "distances": [
            "The Double",
            "100K",
            "60K"
        ],
        "location": "Gould, CO",
        "latitude": 40.5274029,
        "longitude": -106.0258339,
        "register": "https://ultrasignup.com/register.aspx?dtid=55259",
        "date": "July 27, 2024 05:30:00",
        "website": "http://gnarrunners.com/never-summer-100k/"
    },
    "Bigfoot_Snowshoe_Festival": {
        "title": "Bigfoot Snowshoe Festival",
        "distances": [
            "50K",
            "Marathon",
            "25K",
            "15K",
            "10K",
            "5K"
        ],
        "location": "Midway, UT",
        "latitude": 40.5125438,
        "longitude": -111.4748846,
        "register": "https://ultrasignup.com/register.aspx?dtid=55260",
        "date": "January 25, 2025 08:00:00",
        "website": "http://www.squawpeak50.com/"
    },
    "Bell_Ringer_5_Hour": {
        "title": "Bell Ringer 5 Hour",
        "distances": [
            "5hrs"
        ],
        "location": "Morden, MB",
        "latitude": 49.1927055,
        "longitude": -98.1014567,
        "register": "https://ultrasignup.com/register.aspx?dtid=55261",
        "date": "September 21, 2024 10:00:00",
        "website": "https://www.matr.ca/"
    },
    "Cmon_Armageddon": {
        "title": "C'mon Armageddon",
        "distances": [
            "50K",
            "25K"
        ],
        "location": "West Milford, NJ",
        "latitude": 41.1312069,
        "longitude": -74.3673748,
        "register": "https://ultrasignup.com/register.aspx?dtid=55262",
        "date": "October 13, 2024 07:00:00",
        "website": "https://therunningkind.net/"
    },
    "Chicago_Lakefront:_Fall_Version": {
        "title": "Chicago Lakefront: Fall Version",
        "distances": [
            "50 Miler",
            "50K"
        ],
        "location": "Chicago, IL",
        "latitude": 41.8755616,
        "longitude": -87.6244212,
        "register": "https://ultrasignup.com/register.aspx?dtid=55263",
        "date": "October 28, 2023 00:00:00",
        "website": "http://www.ChicagoUltra.org/"
    },
    "Leavenworth_Trail_Fest": {
        "title": "Leavenworth Trail Fest",
        "distances": [
            ""
        ],
        "location": "Leavenworth, WA",
        "latitude": 47.5969138,
        "longitude": -120.661081,
        "register": "https://ultrasignup.com/register.aspx?dtid=54310",
        "date": "May 25, 2024 07:00:00",
        "website": "https://leavenworthtrailfestival.com/mountain-running/"
    },
    "Singletrack_Stampede": {
        "title": "Singletrack Stampede",
        "distances": [
            "22K",
            "10K"
        ],
        "location": "Calabasas, CA",
        "latitude": 34.1446643,
        "longitude": -118.644097,
        "register": "https://ultrasignup.com/register.aspx?dtid=55266",
        "date": "March 2, 2024 07:30:00",
        "website": "https://www.socaltrail.events/singletrack-stampede"
    },